{
"type": "FeatureCollection",
"crs": { "type": "name", "properties": { "name": "urn:ogc:def:crs:OGC:1.3:CRS84" } },
                                                                                
"features": [
{ "type": "Feature", "properties": { "id": "1", "name": "Cairo", "lat": "30.05", "lon": "31.233333", "JAN": "5", "FEB": "3.8", "MAR": "3.8", "APR": "1.1", "MAY": "0.5", "JUN": "0.1", "JUL": "0.1", "AUG": "0.1", "SEP": "0.1", "OCT": "0.7", "NOV": "3.8", "DEC": "5.9" }, "geometry": null },
{ "type": "Feature", "properties": { "id": "2", "name": "Lagos", "lat": "6.453056", "lon": "3.395833", "JAN": "14.3", "FEB": "42", "MAR": "77.1", "APR": "142.4", "MAY": "204.8", "JUN": "312.2", "JUL": "245.9", "AUG": "112.4", "SEP": "167.1", "OCT": "135.8", "NOV": "54", "DEC": "19" }, "geometry": null },
{ "type": "Feature", "properties": { "id": "3", "name": "Brazzaville\/Kinshasa", "lat": "-4.325", "lon": "15.322222", "JAN": "135", "FEB": "145", "MAR": "196", "APR": "196", "MAY": "159", "JUN": "8", "JUL": "3", "AUG": "3", "SEP": "30", "OCT": "119", "NOV": "222", "DEC": "142" }, "geometry": null },
{ "type": "Feature", "properties": { "id": "4", "name": "Johannesburg", "lat": "-26.204444", "lon": "28.045556", "JAN": "125", "FEB": "90", "MAR": "91", "APR": "54", "MAY": "13", "JUN": "9", "JUL": "4", "AUG": "6", "SEP": "27", "OCT": "72", "NOV": "117", "DEC": "105" }, "geometry": null },
{ "type": "Feature", "properties": { "id": "5", "name": "Dar es Salaam", "lat": "-6.8", "lon": "39.283333", "JAN": "76.3", "FEB": "54.9", "MAR": "138.1", "APR": "254.2", "MAY": "197.8", "JUN": "42.9", "JUL": "25.6", "AUG": "24.1", "SEP": "22.8", "OCT": "69.3", "NOV": "125.9", "DEC": "117.8" }, "geometry": null },
{ "type": "Feature", "properties": { "id": "6", "name": "Mogadishu", "lat": "2.033333", "lon": "45.35", "JAN": "0.1", "FEB": "0.1", "MAR": "8", "APR": "61", "MAY": "61", "JUN": "82", "JUL": "64", "AUG": "44", "SEP": "25", "OCT": "32", "NOV": "43", "DEC": "9" }, "geometry": null },
{ "type": "Feature", "properties": { "id": "7", "name": "Casablanca", "lat": "33.533333", "lon": "-7.583333", "JAN": "40.1", "FEB": "0.1", "MAR": "0.1", "APR": "43.7", "MAY": "14.4", "JUN": "0.1", "JUL": "0.1", "AUG": "0.1", "SEP": "9.7", "OCT": "67.4", "NOV": "18.2", "DEC": "105.7" }, "geometry": null },
{ "type": "Feature", "properties": { "id": "8", "name": "Khartoum", "lat": "15.633333", "lon": "32.533333", "JAN": "0.1", "FEB": "0.1", "MAR": "0.1", "APR": "0.1", "MAY": "3.9", "JUN": "4.2", "JUL": "29.6", "AUG": "48.3", "SEP": "26.7", "OCT": "7.8", "NOV": "0.7", "DEC": "0.1" }, "geometry": null },
{ "type": "Feature", "properties": { "id": "9", "name": "Niamey", "lat": "13.521389", "lon": "2.105278", "JAN": "0.1", "FEB": "0.1", "MAR": "3.9", "APR": "5.7", "MAY": "34.7", "JUN": "36.8", "JUL": "154.3", "AUG": "170.8", "SEP": "92.2", "OCT": "9.7", "NOV": "0.7", "DEC": "0.1" }, "geometry": null },
{ "type": "Feature", "properties": { "id": "10", "name": "Kampala", "lat": "0.313611", "lon": "32.581111", "JAN": "68.4", "FEB": "63", "MAR": "131.5", "APR": "169.3", "MAY": "117.5", "JUN": "69.2", "JUL": "63.1", "AUG": "95.7", "SEP": "108.4", "OCT": "138", "NOV": "148.7", "DEC": "91.5" }, "geometry": null },
{ "type": "Feature", "properties": { "id": "11", "name": "Luanda", "lat": "-8.838333", "lon": "13.234444", "JAN": "25.4", "FEB": "35.6", "MAR": "76.2", "APR": "116.8", "MAY": "12.7", "JUN": "1.3", "JUL": "0.1", "AUG": "1.3", "SEP": "2.5", "OCT": "5.1", "NOV": "27.9", "DEC": "20.3" }, "geometry": null },
{ "type": "Feature", "properties": { "id": "12", "name": "Dakar", "lat": "14.692778", "lon": "-17.446667", "JAN": "2.1", "FEB": "1.3", "MAR": "0.1", "APR": "0.1", "MAY": "0.1", "JUN": "10.2", "JUL": "83.4", "AUG": "184", "SEP": "156.5", "OCT": "51.6", "NOV": "2.6", "DEC": "2.6" }, "geometry": null },
{ "type": "Feature", "properties": { "id": "13", "name": "Lusaka", "lat": "-15.416667", "lon": "28.283333", "JAN": "218.9", "FEB": "185.9", "MAR": "110.9", "APR": "39.7", "MAY": "2.5", "JUN": "0.3", "JUL": "0.1", "AUG": "0.1", "SEP": "1", "OCT": "14.1", "NOV": "79.6", "DEC": "189.8" }, "geometry": null },
{ "type": "Feature", "properties": { "id": "14", "name": "Bangui", "lat": "4.366667", "lon": "18.583333", "JAN": "25", "FEB": "43", "MAR": "127", "APR": "135", "MAY": "188", "JUN": "114", "JUL": "226", "AUG": "206", "SEP": "150", "OCT": "201", "NOV": "125", "DEC": "5" }, "geometry": null },
{ "type": "Feature", "properties": { "id": "15", "name": "Tunis", "lat": "36.8", "lon": "10.183333", "JAN": "59.3", "FEB": "57", "MAR": "47.2", "APR": "38", "MAY": "22.6", "JUN": "10.4", "JUL": "3.1", "AUG": "7.1", "SEP": "32.5", "OCT": "65.5", "NOV": "56", "DEC": "66.8" }, "geometry": null }
]
}
